,Station,nh4,nox,po4,ta,chla,ton,sio2,Lat,Lon,do,depth,ph,x,y
0,Del Valle Reservoir,1.4285714285714286,24.28571428571429,1.2914056950991153,,,,,37.6147,-121.74600000000001,,,,610673.6610678332,4163805.862395704
1,H.O. Banks Headworks,5.714285714285714,84.28571428571428,2.9056628139730094,0.0016400000000000002,,,,37.8019,-121.62,,,,621488.4613553468,4184732.639310248
2,Del Valle Check,2.857142857142857,93.57142857142858,2.5828113901982306,0.0016400000000000002,,,,37.6547,-121.742,,,,610967.1905581539,4168248.6686429544
3,TAB River Outlet,1.4285714285714286,0.0,0.0,0.0009600000000000001,,,,39.4556,-121.637,,,,617266.0746104107,4368223.454306898
4,OR nr Byron Hwy 4 Br,5.714285714285714,72.85714285714286,1.6142571188738941,0.0014000000000000002,,,,37.891,-121.57,,,,625739.0210581146,4194685.15579631
5,Blind Point,,,,,0.79,,,38.0325,-121.719,,,,612421.0034018504,4210195.330726735
6,Bethel near Piper,10.000000000000002,59.285714285714285,1.937108542648673,,0.78,,,38.0334,-121.62,,,,621108.1895286633,4210419.526766085
7,D10A - Mallard,11.428571428571429,43.333333333333336,2.367577107681712,0.0016150000000000001,0.5233333333333333,,,38.0429,-121.92,,,,594767.2136902234,4211125.329314389
8,False R Nr Oakley,8.214285714285714,54.285714285714285,1.9371085426486732,,1.21,,,38.0555,-121.667,,,,616948.1404272851,4212811.566877879
9,Fisherman's Cut,11.071428571428571,56.07142857142857,1.937108542648673,,0.525,,,38.0656,-121.648,,,,618598.8363893325,4213956.351789481
10,CLIFTON,5.714285714285714,80.00000000000001,2.9056628139730094,0.00152,,,,37.8298,-121.557,,,,626987.1487300672,4187912.119448578
11,Check 29,1.4285714285714286,105.0,,0.00142,,,,35.232,-119.33,,,,834022.5563912563,3904947.8146367213
12,Check 41,2.857142857142857,122.85714285714286,0.0,0.00168,,,,34.834,-118.712,,,,892203.792316322,3863026.8908940195
13,Check 21,5.714285714285714,0.0,2.5828113901982306,0.0019000000000000002,,,,36.0142,-119.977,,,,772446.2778479077,3989751.763171505
14,CLEAR LK LO ARM CL3 ,0.35714285714285715,0.0,0.0,0.0037600000000000003,,38.21428571428571,,38.9643,-122.679,,,,527809.9461263309,4312863.916305595
15,CLEAR LK 23 OAKS ARM,0.0,0.0,1.2914056950991153,0.00372,,37.85714285714286,,39.0116,-122.696,,,,526319.6201674106,4318107.80142367
16,CLEAR LK 15-UP ARM C,0.0,0.0,4.197068509072125,0.00335,,34.285714285714285,,39.0632,-122.866,,,,511592.9676613399,4323798.536234312
17,Castaic Tower Outlet,0.0,47.142857142857146,0.9685542713243365,0.00184,,,,34.5152,-118.61,,,,903085.2246425613,3828042.8602168667
18,Pyramid TU Outlet,1.4285714285714286,60.714285714285715,0.6457028475495576,0.0017200000000000002,,,,34.6449,-118.764,,,,888330.4694746188,3841834.5012176805
19,DMC @McCabe Rd,4.285714285714286,142.85714285714286,5.165622780396461,0.00266,,,,37.1269,-121.039,,,,674200.9939439474,4110749.6888559945
20,CHECK 13,4.285714285714286,107.85714285714286,3.2285142377477882,0.0018200000000000002,,,,37.0742,-121.015,,,,676455.4584311036,4104946.778000905
21,Gianelli,2.857142857142857,100.0,3.2285142377477882,0.0017400000000000002,,,,37.0665,-121.072,,,,671405.2764160905,4103988.0891236267
22,Pacheco PP,2.142857142857143,57.142857142857146,3.2285142377477882,0.00176,,,,37.0619,-121.181,,,,661723.6767083261,4103286.6447737343
23,LkPerris@Outlet,0.0,4.285714285714286,0.0,,,,,33.8399,-117.176,,,,1039195.3882672297,3759696.8921768675
24,AMERICAN,0.7142857142857143,7.142857142857143,0.0,0.0006000000000000001,,,,38.5596,-121.417,,,,637924.3688719382,4269094.582501539
25,NEMDC @ ElCamino Rd,4.285714285714286,120.0,12.268354103441595,0.00256,,,,38.6112,-121.46700000000001,,,,633472.1311957673,4274746.880113861
26,C3A - Hood,39.642857142857146,27.142857142857142,2.74423710208562,0.0016600000000000002,,,,38.3677,-121.52,,,,629291.90036423,4247650.0014463905
27,Check 66,1.4285714285714286,70.71428571428572,0.0,0.0014800000000000002,,,,34.336,-117.304,,,,1024249.0811373873,3814139.313678865
28,Silverwood Lk Tower,11.428571428571429,37.85714285714286,0.9685542713243365,,,,,34.2793,-117.329,,,,1022297.9121916607,3807711.6041909796
29,OR@DMC-US,,,,,3.1833333333333336,,,37.8103,-121.542,,,,628341.0208758512,4185768.946107806
30,GLC n. OR,,,,,0.625,,,37.8201,-121.545,,,,628059.9964105359,4186852.213613031
31,C10A,3.928571428571429,117.38095238095238,3.0670885258603993,0.0026400000000000004,3.043333333333333,,,37.6793,-121.265,,,,652995.3019822356,4171649.8222124237
32,Old River at TWA,,,,,4.695,,,37.8028,-121.45700000000001,,,,635837.3616896828,4185056.9175988394
33,OLD R BL HEAD       ,,,,,3.1550000000000002,,,37.8076,-121.331,,,,646920.9641836444,4185780.1662894012
34,DOUGHTY CUT - DGL,,,,,4.015,,,37.8147,-121.425,,,,638632.3881358635,4186424.3279634635
35,GLC@Tracy,,,,,2.8449999999999998,,,37.8199,-121.45,,,,636422.1654793331,4186964.5097124004
36,MR@UNDINE,,,,,1.83,,,37.8339,-121.38600000000001,,,,642028.6024487184,4188613.346619978
37,Victoria Canal,,,,,0.7949999999999999,,,37.871,-121.53,,,,629291.3530828349,4192520.6590554113
38,MR at Howard Rd.,,,,,0.40499999999999997,,,37.8762,-121.383,,,,642211.3036613255,4193311.5367490062
39,MR n. Tracy Rd.,,,,,0.705,,,37.8814,-121.46700000000001,,,,634813.7722535443,4193763.8068857333
40,MR@UnionPt/P10A,6.785714285714286,90.71428571428572,2.9056628139730094,0.0014000000000000002,1.1166666666666667,,,37.8908,-121.488,,,,632949.9943648154,4194776.684948765
41,OR@Bacon Is,7.857142857142858,67.85714285714286,1.6142571188738941,0.0013200000000000002,,,,37.9694,-121.572,,,,625429.8503008329,4203381.667506793
42,Turner Cut,,,,,0.66,,,37.9925,-121.454,,,,635752.5224677001,4206110.424005372
43,Middle River Nr Holt,,,,,0.53,,,38.0031,-121.51100000000001,,,,630728.3135222232,4207204.989162641
44,Holland Cut Nr BI,8.928571428571429,54.285714285714285,1.2914056950991153,,0.7649999999999999,,,38.0158,-121.58200000000001,,,,624472.9948257325,4208516.7982513495
45,OR Nr Franks Tract,11.428571428571429,50.714285714285715,1.937108542648673,,0.6950000000000001,,,38.0712,-121.57799999999999,,,,624730.095333552,4214669.409674168
46,Barker Sl. Pump Plnt,6.428571428571429,22.857142857142858,8.716988441919028,0.00236,,,,38.2759,-121.796,,,,605312.542187012,4237112.899767345
47,SACWSACINT,1.4285714285714286,26.785714285714285,1.2914056950991153,0.00176,,,,38.598,-121.54899999999999,,,,626355.5218297096,4273166.0086739855
48,COLUSA,10.000000000000002,22.857142857142858,3.2285142377477882,0.004260000000000001,,,,38.7993,-121.725,,,,610717.6903337121,4295277.043486983
49,Liberty Cut @ USGS,6.785714285714286,33.92857142857143,5.273239921654721,0.00394,2.66,,,38.3289,-121.66799999999999,,,,616424.2530380843,4243147.551959661
50,Toe Drain YB LISBON,15.0,45.0,6.618454187382967,,7.465,,320.3741304130746,38.4749,-121.588,,,,623168.9582914507,4259452.669450492
0,C10A,2.857142857142857,145.71428571428572,3.551365661522567,,2.67,,257.9635855274107,37.67934,-121.2647,300.0,,7.4,653021.6763750255,4171654.7504582866
1,C3A,35.714285714285715,26.42857142857143,2.5828113901982306,,0.81,,191.39233764936924,38.36771,-121.5205,303.125,9.42,7.2,629248.2006271954,4247650.4107149625
2,D10,,,,,0.36,,,38.04631,-121.9183,293.75,39.8,7.7,594911.9858726321,4211505.429555199
3,D12,,,,,0.61,,,38.02161,-121.8063,287.5,38.9,7.6,604774.756211892,4208885.03462533
4,D16,,,,,0.56,,,38.0969,-121.6691,281.25,45.2,7.5,616698.0739686472,4217402.701548615
5,D19,7.142857142857143,46.42857142857143,1.937108542648673,,0.6,,366.1418633292281,38.04376,-121.6148,285.9375,41.4,7.5,621547.4322868297,4211575.865976746
6,D22,,,,,0.37,,,38.08453,-121.7391,300.0,29.8,7.6,610578.6154291853,4215944.451137371
7,D26,10.714285714285714,47.85714285714286,1.937108542648673,,0.82,,377.79183170788536,38.07664000000001,-121.5669,285.9375,41.6,7.45,625694.4631071705,4215288.004876804
8,D28A,7.142857142857143,62.85714285714286,1.937108542648673,,0.99,,359.484738541424,37.97048,-121.573,259.375,21.7,7.4,625340.1731384967,4203500.157518406
9,D4,11.428571428571429,46.42857142857143,2.5828113901982306,,0.45,,314.54914622374594,38.06248,-121.8205,296.875,36.5,7.7,603470.797277582,4213404.009741157
10,D41,7.142857142857143,16.42857142857143,1.937108542648673,,1.35,,89.871184635356,38.03022,-122.3729,245.3125,35.2,7.9,555035.3706389613,4209353.554618091
11,D41A,7.857142857142858,27.857142857142858,2.2599599664234518,,0.9,,134.806776953034,38.08472,-122.3907,251.56250000000003,9.1,7.9,553433.554622486,4215390.200518921
12,D6,10.000000000000002,25.714285714285715,1.937108542648673,,1.38,,168.0924008920547,38.04436,-122.1177,264.0625,38.5,7.7,577417.6407769956,4211104.235371724
13,D7,12.857142857142858,28.571428571428573,1.937108542648673,,0.92,,237.9922111639983,38.11714,-122.0397,278.125,7.0,7.71,584178.4334612257,4219247.542073513
14,D8,10.714285714285714,43.57142857142857,2.5828113901982306,,0.26,,279.5992410877742,38.05992,-121.99,289.0625,42.2,7.7,588604.2132868894,4212944.774607475
17,MD10A,5.000000000000001,88.57142857142857,3.2285142377477882,,0.35,,366.1418633292281,38.04226,-121.4199,257.8125,14.0,7.38,638653.1806160269,4211682.22522763
18,NZ002,,,,,,,,38.06529000000001,-122.2152,262.5,62.2,7.9,568842.7310823847,4213349.827754093
19,NZ004,,,,,,,,38.03576,-122.1616,262.5,38.9,7.8,573574.1601752497,4210114.366653105
20,NZ032,,,,,10.71,,,38.16991,-122.0211,276.5625,32.3,7.58,585747.1261390443,4225119.864855116
21,NZ325,,,,,,,,38.05798,-122.2919,262.5,41.5,7.9,562120.6924143492,4212484.696763805
22,NZS42,,,,,1.74,,,38.18045,-122.0476,268.75,14.2,7.55,583413.780136173,4226265.192997915
23,P8,10.714285714285714,195.0,11.945502679666816,,1.03,,326.19911460240326,37.97817,-121.3823,221.875,35.9,7.3,642076.4575124884,4204627.360214165
